{"categories":[{"name":"Services","marker":{"url":"http:\/\/gustavomorantes.com\/demos\/asterconservatorygreen\/wp-content\/uploads\/2018\/12\/poi-marker-category1.png","width":12,"height":12},"pois":[{"name":"Central Park Station","url":"","address":"8250 Smith Rd, Denver, CO 80207, USA","lat":39.7704068,"lng":-104.8930073},{"name":"Orangetheory Fitness Stapleton","url":"","address":"7349 E 29th Ave, Denver, CO 80238, USA","lat":39.758241,"lng":-104.9024309},{"name":"Polished Hair & Nail Studio","url":"","address":"10155 E 29th Dr #150, Denver, CO 80238","lat":39.7596357,"lng":-104.8688582},{"name":"Sweet Life Nail Bar & Lounge","url":"","address":"2373 Central Park Blvd suite 105, Denver, CO 80238","lat":39.7510821,"lng":-104.8900318},{"name":"Stapleton Family Medicine","url":"","address":"2803 Roslyn St, Denver, CO 80238, USA","lat":39.756214,"lng":-104.900772},{"name":"Sam Gary Branch Library","url":"","address":"2961 Roslyn St, Denver, CO 80238, USA","lat":39.7590405,"lng":-104.9008342}]},{"name":"Dining","marker":{"url":"http:\/\/gustavomorantes.com\/demos\/asterconservatorygreen\/wp-content\/uploads\/2018\/12\/poi-marker-category2.png","width":12,"height":12},"pois":[{"name":"Chipotle Mexican Grill","url":"","address":"7400 E 29th Ave, Denver, CO 80238, USA","lat":39.7578759,"lng":-104.9015587},{"name":"Torchy's Tacos","url":"","address":"8281 E. Northfield Blvd., Denver, CO 80238","lat":39.7860495,"lng":-104.8922861},{"name":"Four Friends Kitchen","url":"","address":"2893 Roslyn St, Denver, CO 80238, USA","lat":39.7572638,"lng":-104.9007202},{"name":"Einstein Bros. Bagels","url":"","address":"7300 E 29th Ave Bldg 600, Denver, CO 80238","lat":39.7578759,"lng":-104.9028207},{"name":"Next Door | Stapleton","url":"","address":"10155 E 29th Dr Suite 160, Denver, CO 80238","lat":39.7596357,"lng":-104.8688582},{"name":"Cattivella Wood Fired Italian","url":"","address":"10195 E 29th Dr #110, Denver, CO 80238","lat":39.7592895,"lng":-104.8684933},{"name":"Starbucks","url":"","address":"7304 E 29th Ave, Denver, CO 80207, USA","lat":39.757863,"lng":-104.9028745},{"name":"Concourse Restaurant Moderne","url":"","address":"10195 E 29th Dr, Denver, CO 80238, USA","lat":39.7592895,"lng":-104.8684933},{"name":"Casey's Bistro & Pub","url":"","address":"7301 E 29th Ave, Denver, CO 80238, USA","lat":39.7581821,"lng":-104.9028555},{"name":"BlueFin Sushi Restaurant in Denver","url":"","address":"7303 E 29th Ave, Denver, CO 80238, USA","lat":39.758228,"lng":-104.902688},{"name":"Etai's Bakery Cafe - Stapleton","url":"","address":"7357 E 29th Ave, Denver, CO 80238, USA","lat":39.7582515,"lng":-104.9019013},{"name":"Berkshire","url":"","address":"7352 East 29th Avenue, Denver, CO 80238, USA","lat":39.7579042,"lng":-104.901967},{"name":"Anthony's Pizza & Pasta","url":"","address":"7472 East 29th Avenue, Denver, CO 80238, USA","lat":39.7579267,"lng":-104.9013008},{"name":"Mici Handcrafted Italian","url":"","address":"2373 Central Park Blvd, Denver, CO 80238, USA","lat":39.7511647,"lng":-104.8896684},{"name":"Bar Louie","url":"","address":"8332 Northfield Blvd, Denver, CO 80238, USA","lat":39.7807226,"lng":-104.8908536},{"name":"Jim 'N Nick's Bar-B-Q","url":"","address":"8264 East 49th Avenue, Denver, CO 80266, USA","lat":39.7813099,"lng":-104.8922072},{"name":"The Bistro at Stapleton","url":"","address":"2955 Ulster St #100, Denver, CO 80238","lat":39.7593113,"lng":-104.8946716},{"name":"La Sandia Cantina","url":"","address":"8340 Northfield Blvd #1690, Denver, CO 80238","lat":39.7818845,"lng":-104.8915011},{"name":"Station 26 Brewing Co.","url":"","address":"7045 E 38th Ave, Denver, CO 80207, USA","lat":39.7695873,"lng":-104.9059893}]},{"name":"Parks & Entertainment","marker":{"url":"http:\/\/gustavomorantes.com\/demos\/asterconservatorygreen\/wp-content\/uploads\/2018\/12\/poi-marker-category3.png","width":12,"height":12},"pois":[{"name":"Rocky Mountain Arsenal National Wildlife Refuge","url":"","address":"6550 Gateway Rd, Commerce City, CO 80022, USA","lat":39.8151305,"lng":-104.8803524},{"name":"Central Park","url":"","address":"8801 M.L.K. Jr Blvd, Denver, CO 80238, USA","lat":39.7608701,"lng":-104.886197},{"name":"Volleyball & Basketball Courts","url":"","address":"8863 E 47th Ave, Denver, CO 80238, USA","lat":39.78294,"lng":-104.88555},{"name":"Bluff Lake Park","url":"","address":"Sand Creek Regional Greenway, Denver, CO 80239, USA","lat":39.7677057,"lng":-104.8735244},{"name":"Punch Bowl Social Stapleton","url":"","address":"3120 N. Uinta St., Denver, CO 80238","lat":39.7606718,"lng":-104.892036},{"name":"Bluff Lake","url":"","address":"Bluff Lake, Denver, CO 80239, USA","lat":39.7612067,"lng":-104.863157},{"name":"Aviator Pool","url":"","address":"8054 E 28th Ave, Denver, CO 80238, USA","lat":39.7561842,"lng":-104.8944895},{"name":"Stapleton Off Leash Dog Park","url":"","address":"2002 Spruce St, Denver, CO 80238, USA","lat":39.7475584,"lng":-104.8975542},{"name":"Puddle Jumper","url":"","address":"2401 N Xenia St, Denver, CO 80202","lat":39.7520601,"lng":-104.8863051},{"name":"Fred Thomas Park","url":"","address":"2400 Quebec St, Denver, CO 80207, USA","lat":39.75255,"lng":-104.900835},{"name":"CorePower Yoga","url":"","address":"7485 E 29th Pl, Denver, CO 80238, USA","lat":39.7584686,"lng":-104.9007537},{"name":"GreenWay Park","url":"","address":"8180 E 26th Ave, Denver, CO 80238, USA","lat":39.7546288,"lng":-104.8836591},{"name":"Stapleton Tennis Courts","url":"","address":"2176 Spruce St, Denver, CO 80238, USA","lat":39.7490101,"lng":-104.8975134},{"name":"Central Park Recreation Center","url":"","address":"9651 M.L.K. Jr Blvd, Denver, CO 80238, USA","lat":39.760999,"lng":-104.8752242}]}],"property":{"property_name":"Aster Conservatory Green","address":"4890 Willow Street","city":"Denver","state":"CO","zip":"80238","lat":39.784366,"lng":-104.886707,"property_map_marker":{"url":"http:\/\/gustavomorantes.com\/demos\/asterconservatorygreen\/wp-content\/uploads\/2018\/08\/map-marker.png","width":58,"height":35}}}